{"_id":{"$oid":"5b5f6cebdf814a1d71aea4d6"},"name":"Bethany's Table","location":{"address":"15325 Northwest Central Drive,Ste J-1","city":"Portland","state":"OR","zip":"97229"},"phone":"5036140267","hours":"Mon 8:00am - 2:00pm \u0026 5:30pm - 10:00pm, Tue 8:00am - 2:00pm \u0026 5:30pm - 10:00pm, Wed 8:00am - 2:00pm \u0026 5:30pm - 10:00pm, Thu 8:00am - 2:00pm \u0026 5:30pm - 10:00pm, Fri 8:00am - 2:00pm \u0026 5:30pm - 10:00pm, Sat 9:00am - 2:30pm \u0026 5:30pm - 10:00pm, Sun 9:00am - 2:30pm \u0026 5:30pm - 9:00pm","owner":"5b5f6a4cdf814a1d71aea3c8"}
{"_id":{"$oid":"5b5f6cebdf814a1d71aea4d7"},"name":"Aviary","location":{"address":"1733 NE Alberta St","city":"Portland","state":"OR","zip":"97211"},"phone":"5032872400","hours":"Mon 8:00am - 2:00pm \u0026 5:30pm - 10:00pm, Tue 8:00am - 2:00pm \u0026 5:30pm - 10:00pm, Wed 8:00am - 2:00pm \u0026 5:30pm - 10:00pm, Thu 8:00am - 2:00pm \u0026 5:30pm - 10:00pm, Fri 8:00am - 2:00pm \u0026 5:30pm - 10:00pm, Sat 9:00am - 2:30pm \u0026 5:30pm - 10:00pm, Sun 9:00am - 2:30pm \u0026 5:30pm - 9:00pm","owner":"5b5f6a4cdf814a1d71aea3c8"}
{"_id":{"$oid":"5b5f6cebdf814a1d71aea4d8"},"name":"Bastas Trattoria and Bar","location":{"address":"410 NW 21st","city":"Portland","state":"OR","zip":"97209"},"phone":"5032741572","hours":"Mon 8:00am - 2:00pm \u0026 5:30pm - 10:00pm, Tue 8:00am - 2:00pm \u0026 5:30pm - 10:00pm, Wed 8:00am - 2:00pm \u0026 5:30pm - 10:00pm, Thu 8:00am - 2:00pm \u0026 5:30pm - 10:00pm, Fri 8:00am - 2:00pm \u0026 5:30pm - 10:00pm, Sat 9:00am - 2:30pm \u0026 5:30pm - 10:00pm, Sun 9:00am - 2:30pm \u0026 5:30pm - 9:00pm","owner":"5b5f6a4cdf814a1d71aea3c8"}
{"_id":{"$oid":"5b5f6cebdf814a1d71aea4d9"},"name":"Mama Mia Trattoria","location":{"address":"439 SW 2nd Ave (Downtown)","city":"Portland","state":"OR","zip":"97204"},"phone":"5032956464","hours":"Mon 8:00am - 2:00pm \u0026 5:30pm - 10:00pm, Tue 8:00am - 2:00pm \u0026 5:30pm - 10:00pm, Wed 8:00am - 2:00pm \u0026 5:30pm - 10:00pm, Thu 8:00am - 2:00pm \u0026 5:30pm - 10:00pm, Fri 8:00am - 2:00pm \u0026 5:30pm - 10:00pm, Sat 9:00am - 2:30pm \u0026 5:30pm - 10:00pm, Sun 9:00am - 2:30pm \u0026 5:30pm - 9:00pm","owner":"5b5f6a4cdf814a1d71aea3c8"}
{"_id":{"$oid":"5b5f6cebdf814a1d71aea4da"},"name":"Bistro 921","location":{"address":"Hilton Portland","city":"Portland","state":"OR","zip":"97204"},"phone":"5032202685","hours":"Mon 8:00am - 2:00pm \u0026 5:30pm - 10:00pm, Tue 8:00am - 2:00pm \u0026 5:30pm - 10:00pm, Wed 8:00am - 2:00pm \u0026 5:30pm - 10:00pm, Thu 8:00am - 2:00pm \u0026 5:30pm - 10:00pm, Fri 8:00am - 2:00pm \u0026 5:30pm - 10:00pm, Sat 9:00am - 2:30pm \u0026 5:30pm - 10:00pm, Sun 9:00am - 2:30pm \u0026 5:30pm - 9:00pm","owner":"5b5f6a4cdf814a1d71aea3c8"}